[{"@id":"2400393509","lat":"34.4232598","lng":"134.0563785","title":"漆の家","content":"","memo":""},{"@id":"2400393513","lat":"34.4221293","lng":"134.0541593","title":"男木島の魂","content":"","memo":""},{"@id":"2400393525","lat":"34.4231344","lng":"134.0552303","title":"男木島路地壁画プロジェクトwallalley","content":"","memo":""},{"@id":"2400393531","lat":"34.4236291","lng":"134.0557881","title":"SEA VINE","content":"","memo":""},{"@id":"2400393534","lat":"34.4217983","lng":"134.0551729","title":"男木島路地壁画プロジェクトwallalley","content":"","memo":""},{"@id":"2400393541","lat":"34.4223383","lng":"134.0559576","title":"男木島路地壁画プロジェクトwallalley","content":"","memo":""},{"@id":"2400393542","lat":"34.4223608","lng":"134.0561796","title":"男木島路地壁画プロジェクトwallalley","content":"","memo":""},{"@id":"2400393544","lat":"34.4217714","lng":"134.0552724","title":"男木島路地壁画プロジェクトwallalley","content":"","memo":""},{"@id":"2400393553","lat":"34.4233617","lng":"134.0561516","title":"オルガン","content":"","memo":""},{"@id":"2400393556","lat":"34.4233524","lng":"134.0558819","title":"オルガン","content":"","memo":""},{"@id":"2400393558","lat":"34.4224741","lng":"134.055532","title":"男木島路地壁画プロジェクトwallalley","content":"","memo":""},{"@id":"2400393562","lat":"34.4233548","lng":"134.0556568","title":"男木島路地壁画プロジェクトwallalley","content":"","memo":""},{"@id":"3921696457","lat":"34.4218419","lng":"134.0554384","title":"おんばファクトリー","content":"","memo":""},{"@id":"4821939363","lat":"34.4235535","lng":"134.0556116","title":"アキノリウム","content":"","memo":""}]