[{"@id":"1527702266","lat":"34.4283787","lng":"134.0601859","title":"ジイの穴","content":"","memo":""},{"@id":"1528919356","lat":"34.4302089","lng":"134.0617144","title":"タンク岩","content":"","memo":""},{"@id":"3374200711","lat":"34.4179904","lng":"134.0554155","title":"加茂神社","content":"place_of_worship","memo":""},{"@id":"3374200712","lat":"34.4226496","lng":"134.0561836","title":"豊玉姫神社","content":"place_of_worship","memo":""},{"@id":"3388754282","lat":"34.4334006","lng":"134.0604614","title":"男木島灯台周辺施設案内図","content":"","memo":""},{"@id":"3390399558","lat":"34.4329907","lng":"134.05964","title":"侍岩","content":"","memo":""},{"@id":"3390961579","lat":"34.4214646","lng":"134.054634","title":"公衆電話","content":"telephone","memo":""},{"@id":"3390967830","lat":"34.4320819","lng":"134.0584197","title":"細川和俊君の足跡","content":"","memo":""},{"@id":"3390977197","lat":"34.4310405","lng":"134.0576073","title":"男木島遊歩道周辺案内図","content":"","memo":""},{"@id":"3390989342","lat":"34.4221969","lng":"134.0540893","title":"自転車レンタル","content":"bicycle_rental","memo":"title追加"},{"@id":"4821944451","lat":"34.4227828","lng":"134.0566504","title":"木場邸の井戸","content":"","memo":""},{"@id":"1000000330453683","lat":"34.4213608","lng":"134.0553845","title":"男木島図書館","content":"library","memo":""},{"@id":"1000000330454413","lat":"34.4334984","lng":"134.0608536","title":"男木島灯台資料館","content":"","memo":""},{"@id":"1000000330454483","lat":"34.4218507","lng":"134.0639775","title":"公衆シャワー","content":"shower","memo":""},{"@id":"1000000331774499","lat":"34.4206918","lng":"134.0554798","title":"神井戸","content":"","memo":""},{"@id":"1000000331775095","lat":"34.4335296","lng":"134.0607404","title":"男木島灯台","content":"","memo":""},{"@id":"1000000331996473","lat":"34.4221696","lng":"134.0541524","title":"男木交流館","content":"public_building","memo":""}]