[{"@id":"1527702114","lat":"34.4222092","lng":"134.0541595","title":"男木交流館 喫茶店","content":"cafe","memo":"title追加"},{"@id":"2401060690","lat":"34.4221775","lng":"134.0546309","title":"村上商店","content":"restaurant","memo":""},{"@id":"2401060793","lat":"34.421536","lng":"134.0547971","title":"まりも荘","content":"restaurant","memo":""},{"@id":"2401060796","lat":"34.4209629","lng":"134.0553933","title":"cafe TACHI","content":"cafe","memo":""},{"@id":"2401061594","lat":"34.4231041","lng":"134.0546622","title":"御食事処 宿泊 まどか","content":"restaurant","memo":""},{"@id":"2401061618","lat":"34.423123","lng":"134.054829","title":"ベーカリー カフェ 海音","content":"bakery","memo":""},{"@id":"3921696458","lat":"34.4219791","lng":"134.0553486","title":"おんばカフェ","content":"cafe","memo":""},{"@id":"4395701092","lat":"34.4266957","lng":"134.0560668","title":"じょうこカフェ","content":"cafe","memo":""},{"@id":"4395701152","lat":"34.4232201","lng":"134.0554655","title":"ドリマの上","content":"cafe","memo":""},{"@id":"4821971436","lat":"34.4191936","lng":"134.0564089","title":"ビストロ伊織","content":"restaurant","memo":""},{"@id":"1000000330450729","lat":"34.4216851","lng":"134.0543655","title":"島テーブル","content":"","memo":""},{"@id":"1000000330453683","lat":"34.4213608","lng":"134.0553845","title":"男木島図書館","content":"","memo":""}]